{
    "data": [
      {
        "id": 1,
        "name": "Москва",
        "population": 12655050,
        "latitude": 55.7558,
        "longitude": 37.6176,
        "shortDescription": "Столица России, крупнейший город страны.",
        "fullDescription": "Москва — столица Российской Федерации, крупнейший город по численности населения. Является важным экономическим, политическим и культурным центром. Здесь находятся Кремль, Красная площадь, Большой театр и множество других достопримечательностей."
      },
      {
        "id": 2,
        "name": "Санкт-Петербург",
        "population": 5398064,
        "latitude": 59.9343,
        "longitude": 30.3351,
        "shortDescription": "Культурная столица России, город на Неве.",
        "fullDescription": "Санкт-Петербург — второй по величине город России, известный своими дворцами, музеями и каналами. Основан Петром I в 1703 году. Здесь находятся Эрмитаж, Исаакиевский собор и Петергоф."
      },
      {
        "id": 3,
        "name": "Архангельск",
        "population": 349742,
        "latitude": 64.5393,
        "longitude": 40.5187,
        "shortDescription": "Город на севере России, важный порт.",
        "fullDescription": "Архангельск — крупный город на севере России, расположенный на берегу Белого моря. Основан в 1584 году. Известен как важный морской порт и центр деревянного зодчества."
      },
      {
        "id": 4,
        "name": "Астрахань",
        "population": 532504,
        "latitude": 46.3497,
        "longitude": 48.0408,
        "shortDescription": "Город в дельте Волги, южные ворота России.",
        "fullDescription": "Астрахань — город в южной части России, расположенный в дельте реки Волги. Известен своими рыбными промыслами, арбузами и многонациональной культурой. Здесь находится Астраханский кремль."
      },
      {
        "id": 5,
        "name": "Барнаул",
        "population": 632848,
        "latitude": 53.3606,
        "longitude": 83.7636,
        "shortDescription": "Столица Алтайского края, промышленный центр.",
        "fullDescription": "Барнаул — город в Сибири, административный центр Алтайского края. Основан в 1730 году. Известен как крупный промышленный и культурный центр. Здесь находятся множество музеев и театров."
      },
      {
        "id": 6,
        "name": "Белгород",
        "population": 391554,
        "latitude": 50.5955,
        "longitude": 36.5872,
        "shortDescription": "Город на юге России, близ границы с Украиной.",
        "fullDescription": "Белгород — город на юге России, близ границы с Украиной. Известен своими историческими памятниками, связанными с Великой Отечественной войной, и развитой инфраструктурой."
      },
      {
        "id": 7,
        "name": "Великий Новгород",
        "population": 222594,
        "latitude": 58.5222,
        "longitude": 31.2691,
        "shortDescription": "Один из древнейших городов России.",
        "fullDescription": "Великий Новгород — один из древнейших городов России, основан в 859 году. Является важным культурным и историческим центром. Здесь находится Новгородский кремль и множество древних церквей."
      },
      {
        "id": 8,
        "name": "Владивосток",
        "population": 604901,
        "latitude": 43.1155,
        "longitude": 131.8855,
        "shortDescription": "Крупный порт на Дальнем Востоке России.",
        "fullDescription": "Владивосток — город на Дальнем Востоке России, административный центр Приморского края. Известен как крупный морской порт и конечная точка Транссибирской магистрали. Здесь находится Русский мост и множество музеев."
      },
      {
        "id": 9,
        "name": "Горно-Алтайск",
        "population": 63295,
        "latitude": 51.9581,
        "longitude": 85.9603,
        "shortDescription": "Столица Республики Алтай.",
        "fullDescription": "Горно-Алтайск — небольшой город, столица Республики Алтай. Расположен в живописной горной местности. Известен своими природными достопримечательностями и культурой коренных народов."
      },
      {
        "id": 10,
        "name": "Гороховец",
        "population": 12655,
        "latitude": 56.2028,
        "longitude": 42.6926,
        "shortDescription": "Маленький город с богатой историей.",
        "fullDescription": "Гороховец — небольшой город во Владимирской области, известный своими историческими памятниками и деревянной архитектурой. Основан в XII веке."
      },
      {
        "id": 11,
        "name": "Дзержинский",
        "population": 24033,
        "latitude": 55.6286,
        "longitude": 37.8549,
        "shortDescription": "Город в Московской области.",
        "fullDescription": "Дзержинский — небольшой город в Московской области, известный своими промышленными предприятиями и близостью к столице."
      },
      {
        "id": 12,
        "name": "Дмитриев",
        "population": 6790,
        "latitude": 52.1289,
        "longitude": 35.0759,
        "shortDescription": "Небольшой город в Курской области.",
        "fullDescription": "Дмитриев — небольшой город в Курской области, известный своими историческими памятниками и природными красотами."
      },
      {
        "id": 13,
        "name": "Екатеринбург",
        "population": 1493749,
        "latitude": 56.8389,
        "longitude": 60.6057,
        "shortDescription": "Крупный город на Урале, промышленный центр.",
        "fullDescription": "Екатеринбург — один из крупнейших городов России, расположенный на Урале. Основан в 1723 году. Известен как важный промышленный и культурный центр. Здесь находится Храм на Крови и множество музеев."
      },
      {
        "id": 14,
        "name": "Ижевск",
        "population": 648213,
        "latitude": 56.8527,
        "longitude": 53.2115,
        "shortDescription": "Столица Удмуртии, город оружейников.",
        "fullDescription": "Ижевск — столица Удмуртской Республики, известный как город оружейников. Здесь производится знаменитый автомат Калашникова. Город также славится своими парками и музеями."
      },
      {
        "id": 15,
        "name": "Иркутск",
        "population": 623479,
        "latitude": 52.2896,
        "longitude": 104.2806,
        "shortDescription": "Крупный город в Сибири, ворота к Байкалу.",
        "fullDescription": "Иркутск — крупный город в Восточной Сибири, известный как ворота к озеру Байкал. Основан в 1661 году. Здесь сохранилось множество исторических зданий и памятников."
      },
      {
        "id": 16,
        "name": "Казань",
        "population": 1257391,
        "latitude": 55.7961,
        "longitude": 49.1064,
        "shortDescription": "Столица Татарстана, город с богатой историей.",
        "fullDescription": "Казань — столица Республики Татарстан, один из крупнейших городов России. Известен своим Казанским кремлем, мечетью Кул-Шариф и богатой культурой."
      },
      {
        "id": 17,
        "name": "Калининград",
        "population": 475056,
        "latitude": 54.7104,
        "longitude": 20.4522,
        "shortDescription": "Город на западе России, бывший Кёнигсберг.",
        "fullDescription": "Калининград — город на западе России, бывший Кёнигсберг. Известен своими историческими памятниками, такими как Кафедральный собор и Музей янтаря."
      },
      {
        "id": 18,
        "name": "Калуга",
        "population": 341892,
        "latitude": 54.5138,
        "longitude": 36.2612,
        "shortDescription": "Город, связанный с космонавтикой.",
        "fullDescription": "Калуга — город в центральной России, известный как колыбель космонавтики. Здесь находится Музей космонавтики имени Циолковского."
      },
      {
        "id": 19,
        "name": "Кемерово",
        "population": 556382,
        "latitude": 55.3547,
        "longitude": 86.0873,
        "shortDescription": "Крупный промышленный центр в Сибири.",
        "fullDescription": "Кемерово — крупный город в Сибири, административный центр Кемеровской области. Известен своими угольными шахтами и промышленными предприятиями."
      },
      {
        "id": 20,
        "name": "Киров",
        "population": 501468,
        "latitude": 58.6036,
        "longitude": 49.6680,
        "shortDescription": "Город в центральной России, известный дымковской игрушкой.",
        "fullDescription": "Киров — город в центральной России, известный своими народными промыслами, такими как дымковская игрушка. Здесь также находится множество музеев и театров."
      },
      {
        "id": 21,
        "name": "Кострома",
        "population": 277280,
        "latitude": 57.7679,
        "longitude": 40.9269,
        "shortDescription": "Город на Волге, известный своими церквями.",
        "fullDescription": "Кострома — город на Волге, известный своими церквями и монастырями. Основан в XII веке. Здесь находится Ипатьевский монастырь и множество других достопримечательностей."
      },
      {
        "id": 22,
        "name": "Краснодар",
        "population": 974319,
        "latitude": 45.0355,
        "longitude": 38.9753,
        "shortDescription": "Столица Кубани, крупный южный город.",
        "fullDescription": "Краснодар — столица Краснодарского края, крупный город на юге России. Известен своими парками, театрами и развитой инфраструктурой."
      },
      {
        "id": 23,
        "name": "Красноярск",
        "population": 1095286,
        "latitude": 56.0184,
        "longitude": 92.8672,
        "shortDescription": "Крупный город в Сибири, центр Красноярского края.",
        "fullDescription": "Красноярск — крупный город в Сибири, административный центр Красноярского края. Известен своими природными заповедниками, такими как Столбы, и развитой промышленностью."
      },
      {
        "id": 24,
        "name": "Курган",
        "population": 309285,
        "latitude": 55.4410,
        "longitude": 65.3411,
        "shortDescription": "Город на Урале, известный медицинскими центрами.",
        "fullDescription": "Курган — город на Урале, известный своими медицинскими центрами и промышленными предприятиями. Здесь также находится множество музеев и театров."
      },
      {
        "id": 25,
        "name": "Курск",
        "population": 452976,
        "latitude": 51.7304,
        "longitude": 36.1926,
        "shortDescription": "Город, известный Курской битвой.",
        "fullDescription": "Курск — город в центральной России, известный своей ролью в Великой Отечественной войне, особенно Курской битвой. Здесь также находится множество исторических памятников."
      },
      {
        "id": 26,
        "name": "Липецк",
        "population": 509098,
        "latitude": 52.6088,
        "longitude": 39.5992,
        "shortDescription": "Город в центральной России, известный металлургией.",
        "fullDescription": "Липецк — город в центральной России, известный своими металлургическими предприятиями. Здесь также находится множество парков и музеев."
      },
      {
        "id": 27,
        "name": "Магадан",
        "population": 91797,
        "latitude": 59.5612,
        "longitude": 150.8301,
        "shortDescription": "Город на Дальнем Востоке, центр Магаданской области.",
        "fullDescription": "Магадан — город на Дальнем Востоке России, административный центр Магаданской области. Известен своими золотыми приисками и суровым климатом."
      },
      {
        "id": 28,
        "name": "Магнитогорск",
        "population": 413253,
        "latitude": 53.4071,
        "longitude": 58.9790,
        "shortDescription": "Крупный промышленный центр на Урале.",
        "fullDescription": "Магнитогорск — крупный город на Урале, известный своими металлургическими комбинатами. Основан в 1929 году."
      },
      {
        "id": 29,
        "name": "Мурманск",
        "population": 287847,
        "latitude": 68.9707,
        "longitude": 33.0749,
        "shortDescription": "Крупный порт на севере России.",
        "fullDescription": "Мурманск — крупный город на севере России, важный морской порт. Известен своими полярными ночами и северным сиянием."
      },
      {
        "id": 30,
        "name": "Нижний Новгород",
        "population": 1252236,
        "latitude": 56.3269,
        "longitude": 44.0055,
        "shortDescription": "Крупный город на Волге, известный своей историей.",
        "fullDescription": "Нижний Новгород — крупный город на Волге, известный своим кремлем, ярмаркой и богатой историей. Основан в 1221 году."
      },
      {
        "id": 31,
        "name": "Новосибирск",
        "population": 1625631,
        "latitude": 55.0084,
        "longitude": 82.9357,
        "shortDescription": "Крупнейший город Сибири, научный центр.",
        "fullDescription": "Новосибирск — крупнейший город Сибири, известный своими научными институтами и Академгородком. Основан в 1893 году."
      },
      {
        "id": 32,
        "name": "Омск",
        "population": 1178391,
        "latitude": 54.9914,
        "longitude": 73.3645,
        "shortDescription": "Крупный город в Сибири, промышленный центр.",
        "fullDescription": "Омск — крупный город в Сибири, известный своими промышленными предприятиями и историческими памятниками. Основан в 1716 году."
      },
      {
        "id": 33,
        "name": "Оренбург",
        "population": 572188,
        "latitude": 51.7682,
        "longitude": 55.0970,
        "shortDescription": "Город на юге Урала, известный своими пуховыми платками.",
        "fullDescription": "Оренбург — город на юге Урала, известный своими пуховыми платками и богатой историей. Основан в 1743 году."
      },
      {
        "id": 34,
        "name": "Орёл",
        "population": 308838,
        "latitude": 52.9703,
        "longitude": 36.0635,
        "shortDescription": "Город в центральной России, известный литературными традициями.",
        "fullDescription": "Орёл — город в центральной России, известный своими литературными традициями. Здесь родились писатели Тургенев и Лесков."
      },
      {
        "id": 35,
        "name": "Пенза",
        "population": 519992,
        "latitude": 53.1951,
        "longitude": 45.0183,
        "shortDescription": "Город на Волге, известный своими музеями.",
        "fullDescription": "Пенза — город на Волге, известный своими музеями и театрами. Основан в 1663 году."
      },
      {
        "id": 36,
        "name": "Пермь",
        "population": 1053938,
        "latitude": 58.0105,
        "longitude": 56.2502,
        "shortDescription": "Крупный город на Урале, промышленный центр.",
        "fullDescription": "Пермь — крупный город на Урале, известный своими промышленными предприятиями и культурными учреждениями. Основан в 1723 году."
      },
      {
        "id": 37,
        "name": "Псков",
        "population": 209840,
        "latitude": 57.8194,
        "longitude": 28.3318,
        "shortDescription": "Один из древнейших городов России.",
        "fullDescription": "Псков — один из древнейших городов России, известный своим кремлем и многочисленными церквями. Основан в 903 году."
      },
      {
        "id": 38,
        "name": "Ростов-на-Дону",
        "population": 1137704,
        "latitude": 47.2224,
        "longitude": 39.7187,
        "shortDescription": "Крупный город на юге России, столица Дона.",
        "fullDescription": "Ростов-на-Дону — крупный город на юге России, известный своими театрами, музеями и развитой инфраструктурой. Основан в 1749 году."
      },
      {
        "id": 39,
        "name": "Рязань",
        "population": 537622,
        "latitude": 54.6294,
        "longitude": 39.7417,
        "shortDescription": "Город с богатой историей, известный своим кремлем.",
        "fullDescription": "Рязань — город с богатой историей, известный своим кремлем и множеством музеев. Основан в 1095 году."
      },
      {
        "id": 40,
        "name": "Самара",
        "population": 1156659,
        "latitude": 53.1959,
        "longitude": 50.1002,
        "shortDescription": "Крупный город на Волге, промышленный центр.",
        "fullDescription": "Самара — крупный город на Волге, известный своими промышленными предприятиями и набережной. Основан в 1586 году."
      },
      {
        "id": 41,
        "name": "Саратов",
        "population": 838042,
        "latitude": 51.5336,
        "longitude": 46.0342,
        "shortDescription": "Город на Волге, известный своими вузами.",
        "fullDescription": "Саратов — город на Волге, известный своими университетами и культурными учреждениями. Основан в 1590 году."
      },
      {
        "id": 42,
        "name": "Смоленск",
        "population": 325495,
        "latitude": 54.7826,
        "longitude": 32.0453,
        "shortDescription": "Город с богатой историей, известный своей крепостью.",
        "fullDescription": "Смоленск — город с богатой историей, известный своей крепостью и множеством церквей. Основан в 863 году."
      },
      {
        "id": 43,
        "name": "Тамбов",
        "population": 289701,
        "latitude": 52.7212,
        "longitude": 41.4523,
        "shortDescription": "Город в центральной России, известный своими садами.",
        "fullDescription": "Тамбов — город в центральной России, известный своими садами и парками. Основан в 1636 году."
      },
      {
        "id": 44,
        "name": "Тверь",
        "population": 420065,
        "latitude": 56.8587,
        "longitude": 35.9176,
        "shortDescription": "Город на Волге, известный своими памятниками.",
        "fullDescription": "Тверь — город на Волге, известный своими памятниками и историческими зданиями. Основан в 1135 году."
      },
      {
        "id": 45,
        "name": "Томск",
        "population": 572740,
        "latitude": 56.4846,
        "longitude": 84.9476,
        "shortDescription": "Город в Сибири, известный своими университетами.",
        "fullDescription": "Томск — город в Сибири, известный своими университетами и научными центрами. Основан в 1604 году."
      },
      {
        "id": 46,
        "name": "Тула",
        "population": 473622,
        "latitude": 54.1930,
        "longitude": 37.6178,
        "shortDescription": "Город, известный своими оружейными заводами.",
        "fullDescription": "Тула — город в центральной России, известный своими оружейными заводами и пряниками. Основан в 1146 году."
      },
      {
        "id": 47,
        "name": "Тюмень",
        "population": 816800,
        "latitude": 57.1522,
        "longitude": 65.5272,
        "shortDescription": "Крупный город в Сибири, нефтяной центр.",
        "fullDescription": "Тюмень — крупный город в Сибири, известный как нефтяной центр. Основан в 1586 году."
      },
      {
        "id": 48,
        "name": "Ульяновск",
        "population": 624518,
        "latitude": 54.3142,
        "longitude": 48.4031,
        "shortDescription": "Город на Волге, родина Ленина.",
        "fullDescription": "Ульяновск — город на Волге, известный как родина Владимира Ленина. Основан в 1648 году."
      },
      {
        "id": 49,
        "name": "Челябинск",
        "population": 1202371,
        "latitude": 55.1598,
        "longitude": 61.4026,
        "shortDescription": "Крупный город на Урале, промышленный центр.",
        "fullDescription": "Челябинск — крупный город на Урале, известный своими промышленными предприятиями и культурными учреждениями. Основан в 1736 году."
      },
      {
        "id": 50,
        "name": "Ярославль",
        "population": 608079,
        "latitude": 57.6261,
        "longitude": 39.8845,
        "shortDescription": "Город на Волге, известный своими церквями.",
        "fullDescription": "Ярославль — город на Волге, известный своими церквями и историческими памятниками. Основан в 1010 году."
      }
    ]
  }